City_ID,City,Lat,Lng,Max Temp,Humidity,Cloudiness,Wind Speed,Country,Date
0,marataizes,-21.0433,-40.8244,22.82,86.0,0.0,4.05,BR,1717453200.0
1,olonkinbyen,70.9221,-8.7187,0.4,92.0,99.0,8.45,SJ,1717453201.0
2,kodiak,57.79,-152.4072,8.73,87.0,100.0,4.12,US,1717453203.0
3,yendi,9.4427,-0.0099,28.11,64.0,51.0,2.03,GH,1717453204.0
4,mahina,-17.5065,-149.489,28.87,65.0,75.0,3.09,PF,1717453206.0
5,tsiombe,-25.3,45.4833,19.68,90.0,5.0,4.21,MG,1717453207.0
6,kill devil hills,36.0307,-75.676,27.0,73.0,75.0,6.69,US,1717453208.0
7,waitangi,-43.9535,-176.5597,8.79,77.0,89.0,3.58,NZ,1717453209.0
8,san antonio de pale,-1.4014,5.6325,25.83,81.0,87.0,5.68,GQ,1717453210.0
9,aioun,16.6614,-9.6149,36.51,14.0,0.0,3.49,MR,1717453211.0
10,ushuaia,-54.8,-68.3,3.81,81.0,75.0,6.17,AR,1717453212.0
11,stanley,54.868,-1.6985,12.09,85.0,20.0,2.57,GB,1717453214.0
12,port-aux-francais,-49.35,70.2167,2.09,78.0,99.0,12.34,TF,1717453215.0
13,invercargill,-46.4,168.35,3.9,91.0,75.0,0.45,NZ,1717453216.0
14,richards bay,-28.783,32.0377,16.9,41.0,61.0,5.52,ZA,1717453217.0
15,port mathurin,-19.6833,63.4167,23.64,71.0,1.0,9.79,MU,1717453219.0
16,puerto lempira,15.2667,-83.7667,29.58,70.0,100.0,4.67,HN,1717453220.0
17,tiksi,71.6872,128.8694,3.67,78.0,29.0,1.59,RU,1717453221.0
18,grytviken,-54.2811,-36.5092,-2.23,70.0,43.0,3.66,GS,1717453222.0
19,new norfolk,-42.7826,147.0587,9.84,97.0,66.0,1.37,AU,1717453223.0
20,albany,42.6001,-73.9662,30.36,35.0,82.0,0.45,US,1717452566.0
21,keflavik,64.0049,-22.5624,5.95,70.0,75.0,8.23,IS,1717453226.0
22,saint-philippe,-21.3585,55.7679,19.77,78.0,35.0,4.0,RE,1717453227.0
23,tofol,5.3248,163.0078,28.88,79.0,75.0,3.09,FM,1717453228.0
24,afaahiti,-17.75,-149.2833,27.93,80.0,100.0,4.52,PF,1717453229.0
25,weno,7.4515,151.8468,29.97,84.0,75.0,3.09,FM,1717453230.0
26,port lincoln,-34.7333,135.8667,12.52,82.0,100.0,4.84,AU,1717453232.0
27,hawaiian paradise park,19.5933,-154.9731,25.73,85.0,100.0,3.6,US,1717453233.0
28,saskatoon,52.1168,-106.6345,17.99,67.0,100.0,11.32,CA,1717452578.0
29,iqaluit,63.7506,-68.5145,-0.15,93.0,100.0,8.75,CA,1717453235.0
30,meadow lakes,61.6247,-149.6011,15.9,54.0,0.0,1.54,US,1717453236.0
31,bubaque,11.2833,-15.8333,26.72,79.0,97.0,7.74,GW,1717453237.0
32,taiohae,,,,,,,,
33,kumi,36.1136,128.336,16.75,78.0,0.0,0.5,KR,1717453240.0
34,yaya,56.206,86.44,10.09,98.0,100.0,3.53,RU,1717453241.0
35,khandyga,62.6667,135.6,13.81,52.0,22.0,1.75,RU,1717453242.0
36,adamstown,-25.066,-130.1015,21.3,82.0,100.0,3.22,PN,1717453243.0
37,pyt-yakh,60.7499,72.8582,3.7,70.0,6.0,0.45,RU,1717453244.0
38,blackmans bay,-43.0167,147.3167,9.18,96.0,0.0,0.45,AU,1717453245.0
39,vorkuta,67.5,64.0,-6.61,98.0,100.0,0.89,RU,1717453246.0
40,tura,25.5198,90.2201,21.59,94.0,100.0,1.71,IN,1717453248.0
41,puerto natales,-51.7236,-72.4875,-0.85,93.0,100.0,0.94,CL,1717453249.0
42,penzance,50.1186,-5.5371,14.38,89.0,40.0,4.19,GB,1717453230.0
43,west island,-12.1568,96.8225,27.99,89.0,40.0,3.6,CC,1717453251.0
44,kerikeri,-35.2268,173.9474,14.39,95.0,100.0,1.58,NZ,1717453252.0
45,sylacauga,33.1732,-86.2516,31.07,61.0,100.0,3.09,US,1717453253.0
46,anadyr,64.75,177.4833,10.28,53.0,0.0,7.0,RU,1717453255.0
47,marsh harbour,26.5412,-77.0636,26.24,73.0,15.0,5.44,BS,1717453256.0
48,vadso,70.0744,29.7487,10.49,87.0,20.0,1.54,NO,1717453257.0
49,hithadhoo,-0.6,73.0833,28.61,73.0,91.0,3.85,MV,1717453258.0
50,taroa,8.7058,171.2275,27.9,81.0,88.0,7.24,MH,1717453259.0
51,hassi messaoud,31.6804,6.0729,27.92,44.0,7.0,6.17,DZ,1717453260.0
52,maxixe,-23.8597,35.3472,24.06,84.0,15.0,6.93,MZ,1717453262.0
53,san cristobal,7.7669,-72.225,25.1,78.0,81.0,2.89,VE,1717453263.0
54,hamilton,39.1834,-84.5333,28.97,62.0,40.0,2.57,US,1717453138.0
55,nafada,11.0956,11.3327,33.05,42.0,75.0,5.54,NG,1717453265.0
56,jamestown,42.097,-79.2353,25.25,68.0,75.0,3.09,US,1717453055.0
57,whitburn,54.9533,-1.3686,14.03,82.0,21.0,4.41,GB,1717453267.0
58,lazaro cardenas,17.9583,-102.2,29.81,53.0,3.0,6.52,MX,1717453268.0
59,yellowknife,62.456,-114.3525,13.56,66.0,75.0,6.17,CA,1717453260.0
60,naze,28.3667,129.4833,22.51,70.0,3.0,4.68,JP,1717453271.0
61,saldanha,-33.0117,17.9442,17.03,95.0,68.0,3.45,ZA,1717453272.0
62,margaret river,-33.95,115.0667,15.93,82.0,70.0,0.83,AU,1717453273.0
63,mugia,43.1041,-9.2179,15.51,84.0,2.0,6.35,ES,1717453274.0
64,aykhal,66.0,111.5,12.78,40.0,100.0,1.67,RU,1717453275.0
65,edinburgh of the seven seas,-37.0676,-12.3116,12.05,59.0,32.0,2.73,SH,1717453277.0
66,thompson,55.7435,-97.8558,16.09,51.0,75.0,3.09,CA,1717453278.0
67,al jawf,29.5,38.75,31.53,13.0,4.0,4.69,SA,1717453279.0
68,forster,-32.1667,152.5167,10.77,100.0,19.0,1.93,AU,1717453280.0
69,lebu,-37.6167,-73.65,11.69,62.0,100.0,4.91,CL,1717452983.0
70,puerto ayora,-0.7393,-90.3518,26.98,97.0,86.0,0.45,EC,1717453283.0
71,la gi,10.6667,107.7833,26.78,77.0,100.0,4.32,VN,1717453284.0
72,vilyuysk,63.7553,121.6247,18.33,70.0,83.0,1.79,RU,1717453285.0
73,manatutu,,,,,,,,
74,college,64.8569,-147.8028,19.69,43.0,100.0,0.89,US,1717453287.0
75,moyale,3.5167,39.0584,21.52,62.0,13.0,1.27,KE,1717453288.0
76,st. john's,47.5649,-52.7093,9.6,98.0,100.0,4.12,CA,1717453234.0
77,nova sintra,14.8667,-24.7167,24.34,77.0,100.0,9.82,CV,1717453291.0
78,kristiansund,63.1115,7.732,9.03,78.0,75.0,5.66,NO,1717453292.0
79,manta,-0.95,-80.7333,23.88,78.0,75.0,6.69,EC,1717453207.0
80,ar rudayyif,34.3827,8.1555,20.87,40.0,5.0,8.71,TN,1717453294.0
81,lihue,21.9789,-159.3672,28.58,76.0,75.0,6.17,US,1717453295.0
82,iskateley,67.6803,53.1512,3.34,78.0,100.0,1.79,RU,1717453296.0
83,sao vicente,-23.9631,-46.3919,27.3,56.0,27.0,2.24,BR,1717453298.0
84,obo,5.3998,26.4869,22.71,81.0,78.0,1.29,CF,1717453299.0
85,novyy urgal,51.0736,132.5642,10.2,59.0,50.0,1.06,RU,1717453300.0
86,gadzhiyevo,69.2551,33.3362,10.26,91.0,3.0,1.71,RU,1717453301.0
87,alo,7.4178,6.7371,24.86,94.0,2.0,1.95,NG,1717453302.0
88,fort bragg,35.139,-79.006,27.33,81.0,100.0,3.6,US,1717453303.0
89,walvis bay,-22.9575,14.5053,12.53,76.0,0.0,4.63,NA,1717453304.0
90,midvagur,62.0511,-7.1939,5.46,87.0,75.0,5.66,FO,1717453306.0
91,dudinka,69.4058,86.1778,-6.85,95.0,27.0,1.34,RU,1717453307.0
92,florence,43.7667,11.25,17.28,82.0,0.0,1.03,IT,1717453308.0
93,vorgashor,67.5833,63.95,-6.78,98.0,100.0,1.66,RU,1717453309.0
94,ilulissat,69.2167,-51.1,5.01,42.0,20.0,3.09,GL,1717453310.0
95,formosa,-26.1775,-58.1781,14.42,73.0,38.0,1.79,AR,1717453311.0
96,whitehorse,60.7161,-135.0538,12.83,81.0,75.0,2.06,CA,1717453167.0
97,margate,51.3813,1.3862,16.6,83.0,100.0,1.34,GB,1717453188.0
98,pangody,65.85,74.4859,-6.28,97.0,38.0,3.07,RU,1717453315.0
99,rongelap,11.1635,166.8941,27.9,82.0,100.0,8.12,MH,1717453316.0
100,happy valley-goose bay,53.3168,-60.3315,22.17,68.0,20.0,3.6,CA,1717453317.0
101,minas de marcona,-15.2119,-75.1103,15.06,69.0,3.0,4.92,PE,1717453030.0
102,cartagena,10.3997,-75.5144,30.79,74.0,40.0,2.06,CO,1717453062.0
103,bac lieu,9.285,105.7244,28.2,80.0,100.0,4.58,VN,1717453148.0
104,daru,-9.0763,143.2092,26.67,80.0,40.0,4.09,PG,1717453322.0
105,ribeira grande,38.5167,-28.7,18.22,82.0,20.0,2.57,PT,1717453323.0
106,nar'yan-mar,67.6713,53.087,3.39,78.0,100.0,1.79,RU,1717453324.0
107,ust-nera,64.5667,143.2,16.18,36.0,6.0,1.75,RU,1717453325.0
108,bredasdorp,-34.5322,20.0403,15.05,79.0,100.0,5.29,ZA,1717453326.0
109,road town,18.4167,-64.6167,30.02,79.0,20.0,4.12,VG,1717453327.0
110,tasbuget,,,,,,,,
111,port augusta,-32.5,137.7667,11.07,56.0,100.0,2.67,AU,1717453330.0
112,amahai,-3.3333,128.9167,24.77,95.0,100.0,1.22,ID,1717453331.0
113,urangan,-25.3,152.9,12.89,82.0,54.0,2.68,AU,1717453332.0
114,masterton,-40.9597,175.6575,10.06,74.0,66.0,2.78,NZ,1717453333.0
115,puerto san carlos,,,,,,,,
116,selfoss,63.9331,-20.9971,3.91,49.0,57.0,9.0,IS,1717453336.0
117,palu,-0.8917,119.8707,23.66,99.0,100.0,1.79,ID,1717453337.0
118,bilibino,68.0546,166.4372,11.37,38.0,78.0,4.91,RU,1717453338.0
119,wailua homesteads,22.0669,-159.378,28.24,81.0,75.0,6.17,US,1717453339.0
120,chibougamau,49.9168,-74.3659,25.79,29.0,0.0,2.57,CA,1717453340.0
121,pasargad,,,,,,,,
122,fort mcmurray,56.7268,-111.381,18.77,45.0,0.0,6.17,CA,1717453098.0
123,kuusamo,65.9667,29.1833,15.02,94.0,0.0,3.09,FI,1717453344.0
124,longyearbyen,78.2186,15.6401,5.91,75.0,75.0,9.77,SJ,1717453345.0
125,inari,68.906,27.0288,17.11,77.0,100.0,2.06,FI,1717453346.0
126,kone,-21.0595,164.8658,26.89,69.0,8.0,2.14,NC,1717453347.0
127,bengkulu,-3.8004,102.2655,24.18,90.0,99.0,1.6,ID,1717453349.0
128,acajutla,13.5928,-89.8275,30.52,68.0,100.0,3.55,SV,1717453350.0
129,'ohonua,,,,,,,,
130,hadibu,12.65,54.0333,28.27,78.0,99.0,6.23,YE,1717453353.0
131,atafu village,-8.5421,-172.5159,28.93,74.0,83.0,4.19,TK,1717453354.0
132,bethel,41.3712,-73.414,29.05,43.0,0.0,2.06,US,1717453355.0
133,kasongo,-4.45,26.6667,21.78,90.0,48.0,1.15,CD,1717453356.0
134,aasiaat,68.7098,-52.8699,0.18,72.0,0.0,6.33,GL,1717453357.0
135,markaz-e hukumat-e darweshan,31.1323,64.1934,31.04,8.0,30.0,2.56,AF,1717453358.0
136,east london,-33.0153,27.9116,13.71,49.0,40.0,5.97,ZA,1717453360.0
137,ormond-by-the-sea,29.3491,-81.0665,29.13,61.0,0.0,5.14,US,1717453082.0
138,curanilahue,-37.4667,-73.35,10.62,60.0,100.0,1.53,CL,1717453362.0
139,dumai,1.6833,101.45,23.9,97.0,90.0,0.37,ID,1717453363.0
140,filey,54.21,-0.2892,13.77,86.0,52.0,1.34,GB,1717453364.0
141,calabozo,8.9242,-67.4293,24.86,95.0,100.0,1.55,VE,1717453245.0
142,poronaysk,49.2167,143.1167,6.56,83.0,100.0,1.36,RU,1717453366.0
143,el bauga,18.262,33.9081,34.77,13.0,2.0,1.92,SD,1717453368.0
144,port alfred,-33.5906,26.891,11.21,76.0,66.0,0.89,ZA,1717453369.0
145,talnakh,69.4865,88.3972,-7.11,94.0,97.0,0.67,RU,1717453370.0
146,klyuchi,52.2667,79.1667,15.59,64.0,100.0,7.26,RU,1717453371.0
147,castillos,-34.1667,-53.8333,8.89,66.0,100.0,1.77,UY,1717453372.0
148,surman,32.7567,12.5716,23.14,74.0,100.0,8.67,LY,1717453373.0
149,udachny,66.4167,112.4,13.03,48.0,100.0,2.39,RU,1717453375.0
150,port saint john's,-31.6229,29.5448,15.09,45.0,80.0,2.77,ZA,1717453376.0
151,sydney,-33.8679,151.2073,11.51,74.0,0.0,4.12,AU,1717452711.0
152,hobyo,5.3505,48.5268,26.66,82.0,47.0,10.66,SO,1717453378.0
153,isafjordur,66.0755,-23.124,1.31,65.0,31.0,4.41,IS,1717453379.0
154,smithers,54.7804,-127.1743,12.18,94.0,100.0,2.06,CA,1717453380.0
155,laminusa,5.5549,120.9136,28.1,77.0,100.0,1.22,PH,1717453381.0
156,waddan,29.1614,16.139,32.57,26.0,0.0,6.26,LY,1717453383.0
157,axim,4.8699,-2.2405,26.62,84.0,21.0,3.91,GH,1717453384.0
158,kievka,50.2619,71.5514,13.97,58.0,4.0,4.28,KZ,1717453385.0
159,saranac lake,44.3295,-74.1313,27.18,32.0,75.0,2.57,US,1717453386.0
160,al ghayzah,16.2079,52.176,28.42,84.0,73.0,4.05,YE,1717453387.0
161,sosnogorsk,63.6023,53.8817,12.52,67.0,100.0,2.68,RU,1717453388.0
162,oriximina,-1.7656,-55.8661,26.96,83.0,11.0,1.88,BR,1717453389.0
163,kabalo,-6.05,26.9167,23.67,74.0,44.0,0.25,CD,1717453391.0
164,port elizabeth,-33.918,25.5701,13.16,83.0,0.0,5.66,ZA,1717453392.0
165,monrovia,6.3005,-10.7969,25.87,86.0,92.0,3.09,LR,1717453393.0
166,utrik,11.2278,169.8474,28.19,81.0,92.0,10.02,MH,1717453394.0
167,ubari,26.5921,12.7805,30.97,26.0,64.0,1.38,LY,1717453395.0
168,georgetown,5.4112,100.3354,26.97,85.0,20.0,1.03,MY,1717453132.0
169,rauma,61.1272,21.5113,18.02,85.0,100.0,2.9,FI,1717453397.0
170,kenora,49.8167,-94.4337,20.54,64.0,75.0,2.57,CA,1717453399.0
171,burutu,5.3509,5.5076,25.8,90.0,81.0,2.58,NG,1717453400.0
172,goundi,9.3627,17.366,30.59,47.0,36.0,0.88,TD,1717453401.0
173,at taj,24.2049,23.2857,31.85,15.0,1.0,5.28,LY,1717453402.0
174,papatowai,-46.5619,169.4708,8.92,62.0,30.0,0.95,NZ,1717453403.0
175,chonchi,-42.6128,-73.8092,7.84,89.0,100.0,2.6,CL,1717453404.0
176,tromso,69.6496,18.957,10.01,76.0,75.0,3.09,NO,1717453405.0
177,punta arenas,-53.15,-70.9167,2.06,87.0,0.0,2.57,CL,1717453263.0
178,badger,64.8,-147.5333,19.64,42.0,100.0,0.0,US,1717453408.0
179,kapuskasing,49.4169,-82.4331,25.0,36.0,100.0,3.6,CA,1717453202.0
180,jalalpore,,,,,,,,
181,crane,31.3974,-102.3501,38.81,5.0,46.0,7.87,US,1717453411.0
182,chelghoum el aid,36.1629,6.1665,19.32,76.0,27.0,2.23,DZ,1717453412.0
183,bokoro,12.3807,17.0568,36.53,18.0,12.0,3.17,TD,1717453414.0
184,fauske,67.2588,15.3918,9.32,80.0,100.0,0.5,NO,1717453415.0
185,fale old settlement,-9.3852,-171.2468,29.02,75.0,61.0,5.22,TK,1717453416.0
186,kruisfontein,-34.0033,24.7314,10.96,88.0,100.0,5.35,ZA,1717453417.0
187,bamboo flat,11.7,92.7167,27.05,94.0,75.0,1.03,IN,1717453418.0
188,sofifi,,,,,,,,
189,vila franca do campo,37.7167,-25.4333,19.23,99.0,18.0,1.92,PT,1717453421.0
190,burela de cabo,43.65,-7.4,16.68,92.0,49.0,5.21,ES,1717453422.0
191,huarmey,-10.0681,-78.1522,20.44,74.0,1.0,3.45,PE,1717453423.0
192,pinehurst,35.1954,-79.4695,26.84,68.0,0.0,3.6,US,1717453205.0
193,masonboro,34.1793,-77.8475,28.37,64.0,20.0,5.66,US,1717453425.0
194,ola,59.5833,151.2833,7.3,82.0,100.0,2.55,RU,1717453426.0
195,sao joao da barra,-21.6403,-41.0511,22.05,86.0,0.0,4.74,BR,1717453427.0
196,touros,-5.1989,-35.4608,25.36,86.0,39.0,3.97,BR,1717453429.0
197,ketchikan,55.3422,-131.6461,12.99,76.0,100.0,5.14,US,1717453384.0
198,zaragoza,41.6561,-0.8773,21.68,54.0,20.0,8.75,ES,1717453431.0
199,puerto armuelles,8.2833,-82.8667,25.61,89.0,100.0,2.24,PA,1717453432.0
200,banda aceh,5.5577,95.3222,26.29,82.0,57.0,2.29,ID,1717453433.0
201,charters towers,-20.1,146.2667,15.29,80.0,0.0,3.63,AU,1717453434.0
202,pompeu,-19.2244,-44.9353,21.29,54.0,100.0,1.18,BR,1717453435.0
203,aswan,24.0934,32.907,33.11,9.0,0.0,4.21,EG,1717453141.0
204,murgab,37.4966,61.9714,22.93,49.0,3.0,2.06,TM,1717453438.0
205,san patricio,28.017,-97.5169,33.05,62.0,91.0,9.44,US,1717453439.0
206,kingston,17.997,-76.7936,29.53,66.0,75.0,6.17,JM,1717453389.0
207,malango,-2.9627,119.9001,19.18,98.0,100.0,0.82,ID,1717453441.0
208,sittwe,20.15,92.9,26.77,86.0,70.0,2.62,MM,1717453442.0
209,ulsteinvik,62.3432,5.8487,10.42,86.0,25.0,6.71,NO,1717453443.0
210,ermoupolis,37.4423,24.9425,26.05,44.0,79.0,3.6,GR,1717453445.0
211,saipan,15.1355,145.701,30.39,70.0,20.0,4.12,MP,1717453446.0
212,amga,60.8953,131.9608,11.8,46.0,17.0,4.23,RU,1717453447.0
213,swakopmund,-22.6833,14.5333,12.47,75.0,0.0,0.45,NA,1717453448.0
214,guane,22.2025,-84.0875,25.13,85.0,88.0,2.5,CU,1717453449.0
215,westport,41.1415,-73.3579,29.6,47.0,0.0,1.54,US,1717453357.0
216,chicomuselo,15.7667,-92.2667,38.07,25.0,50.0,3.25,MX,1717453452.0
217,pacocha,-17.5833,-71.3333,16.12,88.0,25.0,2.27,PE,1717453453.0
218,serdar,38.9764,56.2757,23.91,49.0,0.0,5.37,TM,1717453454.0
219,kiunga,-6.1219,141.2906,23.52,100.0,100.0,0.31,PG,1717453455.0
220,choibalsan,48.0667,114.5,18.13,43.0,100.0,3.36,MN,1717453456.0
221,laukaa,58.7372,29.8453,15.2,95.0,92.0,2.16,RU,1717453457.0
222,bucerias,20.75,-105.3333,30.55,70.0,0.0,6.17,MX,1717453458.0
223,tranovaho,,,,,,,,
224,kudymkar,59.0173,54.656,14.11,96.0,93.0,2.05,RU,1717453461.0
225,kifri,34.6959,44.9661,31.92,22.0,0.0,4.6,IQ,1717453462.0
226,benjamin constant,-4.3831,-70.0311,29.07,78.0,75.0,8.75,BR,1717453463.0
227,luderitz,-26.6481,15.1594,12.52,78.0,0.0,2.65,NA,1717453250.0
228,kinablangan,7.6947,126.5503,24.84,86.0,88.0,1.81,PH,1717453465.0
229,nakasongola,1.3089,32.4564,19.46,89.0,76.0,1.08,UG,1717453467.0
230,ingeniero jacobacci,-41.3427,-69.5448,3.24,67.0,100.0,5.49,AR,1717453468.0
231,rockland,41.1668,-74.0496,29.31,52.0,100.0,1.63,US,1717453469.0
232,la passe,45.5549,-0.8967,17.13,81.0,28.0,3.53,FR,1717453470.0
233,sinop,41.7711,34.8709,19.96,63.0,0.0,4.59,TR,1717453471.0
234,opuwo,-18.0607,13.84,10.26,15.0,0.0,0.96,NA,1717453473.0
235,brookings,44.3114,-96.7984,29.03,44.0,0.0,1.54,US,1717453474.0
236,loango,-4.6719,11.8312,22.81,94.0,20.0,2.57,CG,1717453475.0
237,'ain el hadjar,34.7585,0.1453,18.63,55.0,72.0,4.23,DZ,1717453476.0
238,makurdi,7.7411,8.5121,26.49,82.0,22.0,3.33,NG,1717453477.0
239,qaqortoq,60.7167,-46.0333,4.7,85.0,95.0,0.86,GL,1717453478.0
240,mount gambier,-37.8333,140.7667,5.19,84.0,100.0,1.8,AU,1717453479.0
241,livingston,55.9029,-3.5226,12.29,80.0,40.0,6.69,GB,1717453348.0
242,as samawah,31.332,45.2944,34.14,14.0,0.0,6.11,IQ,1717453482.0
243,jatoba,-9.1831,-38.2689,24.92,74.0,75.0,4.99,BR,1717453483.0
244,vacaria,-28.5122,-50.9339,6.77,98.0,100.0,3.3,BR,1717453484.0
245,gosaba,,,,,,,,
246,menongue,-14.6585,17.691,10.81,26.0,2.0,1.04,AO,1717453486.0
247,tazovsky,67.4667,78.7,-4.08,96.0,100.0,5.04,RU,1717453487.0
248,vernon,50.2581,-119.2691,19.05,44.0,100.0,4.47,CA,1717453489.0
249,sisimiut,66.9395,-53.6735,4.11,66.0,77.0,2.93,GL,1717453490.0
250,sheridan,44.8333,-106.9173,25.21,44.0,40.0,2.57,US,1717453491.0
251,chishtian,29.8,72.8667,36.46,19.0,0.0,8.17,PK,1717453492.0
252,abepura,-2.6333,140.5833,24.45,100.0,20.0,1.03,ID,1717453493.0
253,el calafate,-50.3408,-72.2768,-1.01,60.0,95.0,0.59,AR,1717453399.0
254,north shore,-36.8,174.75,14.91,90.0,86.0,0.89,NZ,1717453496.0
255,fuvahmulah,,,,,,,,
256,bundaberg,-24.85,152.35,14.01,81.0,37.0,0.45,AU,1717453498.0
257,mirny,62.5353,113.9611,12.35,66.0,100.0,0.89,RU,1717453499.0
258,canavieiras,-15.675,-38.9472,22.32,92.0,77.0,2.13,BR,1717453500.0
259,el granada,37.5027,-122.4694,25.8,82.0,100.0,7.72,US,1717453501.0
260,kaedi,16.1465,-13.5047,35.13,16.0,0.0,4.4,MR,1717453503.0
261,osakarovka,50.565,72.5692,12.33,70.0,20.0,4.45,KZ,1717453504.0
262,waliso,8.5333,37.9833,19.05,61.0,89.0,1.1,ET,1717453505.0
263,keetmanshoop,-26.5833,18.1333,7.51,76.0,0.0,2.57,NA,1717453506.0
264,gostynin,52.4294,19.4619,14.25,96.0,23.0,2.45,PL,1717453507.0
265,kayes,14.0,-11.0,36.42,16.0,3.0,2.73,ML,1717453509.0
266,bu'aale,1.0833,42.5833,24.76,87.0,72.0,4.09,SO,1717453510.0
267,ati,13.2154,18.3353,33.82,13.0,1.0,3.39,TD,1717453511.0
268,taunggyi,20.7833,97.0333,18.68,97.0,88.0,1.44,MM,1717453512.0
269,tsengel,49.4783,100.8894,10.87,63.0,100.0,0.58,MN,1717453513.0
270,el-tor,28.2364,33.6254,26.08,65.0,0.0,3.09,EG,1717453515.0
271,brazzaville,-4.2658,15.2832,27.17,78.0,40.0,2.57,CG,1717453516.0
272,enewetak,11.3474,162.3373,27.94,82.0,100.0,6.73,MH,1717453517.0
273,morondava,-20.2833,44.2833,23.15,70.0,0.0,2.02,MG,1717453518.0
274,serhiyivka,46.0272,30.3768,19.98,83.0,100.0,4.39,UA,1717453519.0
275,sinabang,2.4803,96.3801,26.76,86.0,48.0,1.92,ID,1717453521.0
276,craig,40.5153,-107.5464,22.97,28.0,100.0,8.23,US,1717453291.0
277,eaglehawk,-36.7333,144.25,5.32,60.0,100.0,0.23,AU,1717453524.0
278,kapa'a,22.0752,-159.319,28.99,81.0,100.0,6.17,US,1717453525.0
279,mishkino,55.3389,63.9175,13.67,98.0,92.0,4.05,RU,1717453526.0
280,palera,25.0167,79.2333,35.67,27.0,57.0,2.78,IN,1717453527.0
281,xilin hot,43.9667,116.0333,16.09,42.0,38.0,2.35,CN,1717453528.0
282,nyala,12.05,24.8833,31.27,10.0,5.0,3.13,SD,1717453529.0
283,queimadas,-10.9783,-39.6264,23.25,78.0,48.0,5.2,BR,1717453531.0
284,constantia,44.1833,28.65,20.39,87.0,100.0,2.23,RO,1717453412.0
285,maintirano,-18.0667,44.0167,24.98,78.0,2.0,0.58,MG,1717453533.0
286,jakar,27.5492,90.7525,9.49,91.0,82.0,0.59,BT,1717453534.0
287,lagdo,9.05,13.7333,28.85,60.0,39.0,0.97,CM,1717453536.0
288,brezina,33.0989,1.2608,26.38,31.0,99.0,3.51,DZ,1717453537.0
289,polewali,-3.4324,119.3435,24.66,90.0,100.0,1.23,ID,1717453538.0
290,sevierville,35.8681,-83.5618,30.73,59.0,0.0,0.0,US,1717453402.0
291,omuthiya,,,,,,,,
292,marudi,,,,,,,,
293,caleta de carquin,-11.0925,-77.6267,19.52,74.0,3.0,3.72,PE,1717453544.0
294,giado,31.9582,12.0203,28.83,35.0,99.0,8.59,LY,1717453545.0
295,cable beach,,,,,,,,
296,gorontalo,0.5412,123.0595,23.57,98.0,100.0,0.67,ID,1717453547.0
297,kirensk,57.7853,108.1119,11.09,63.0,35.0,0.45,RU,1717453548.0
298,syktyvkar,61.6764,50.8099,15.85,77.0,0.0,2.0,RU,1717453468.0
299,staritsa,56.5075,34.9354,14.76,96.0,60.0,2.84,RU,1717453551.0
300,yangor,,,,,,,,
301,haiku-pauwela,20.9219,-156.3051,27.9,77.0,75.0,9.77,US,1717453553.0
302,inarajan village,13.2736,144.7484,30.22,86.0,100.0,2.6,GU,1717453554.0
303,avarua,-21.2078,-159.775,24.03,64.0,100.0,2.57,CK,1717453555.0
304,quakers hill,-33.7333,150.8833,11.7,88.0,93.0,1.34,AU,1717453556.0
305,nema,57.5067,50.5011,16.58,92.0,28.0,2.28,RU,1717453557.0
306,petropavlovsk-kamchatsky,53.0452,158.6483,12.33,75.0,0.0,2.0,RU,1717453559.0
307,carnarvon,-24.8667,113.6333,18.06,63.0,0.0,4.81,AU,1717453560.0
308,san luis de la loma,17.2706,-100.8939,31.15,49.0,80.0,5.81,MX,1717453561.0
309,north bend,43.4065,-124.2243,19.43,72.0,100.0,6.17,US,1717453271.0
310,gao,16.6362,1.637,34.71,23.0,65.0,4.03,ML,1717453563.0
311,hasaki,35.7333,140.8333,19.22,71.0,94.0,7.22,JP,1717453564.0
312,letlhakane,-21.4167,25.5833,7.93,29.0,0.0,3.38,BW,1717453514.0
313,lugoj,45.6886,21.9031,16.0,94.0,39.0,1.81,RO,1717453567.0
314,gemena,3.25,19.7667,22.09,99.0,89.0,1.3,CD,1717453568.0
315,tanrake village,,,,,,,,
316,taltal,-25.4,-70.4833,15.79,85.0,97.0,1.08,CL,1717452977.0
317,colonia,50.9333,6.95,16.13,74.0,100.0,1.54,DE,1717453571.0
318,garrni,40.1193,44.7344,19.33,52.0,0.0,4.16,AM,1717453573.0
319,sampit,-2.5333,112.95,23.38,100.0,100.0,1.33,ID,1717453574.0
320,union,40.6334,-74.2663,29.6,45.0,100.0,3.6,US,1717453575.0
321,hammerfest,70.6634,23.6821,11.25,76.0,40.0,5.66,NO,1717453576.0
322,howrah,22.5892,88.3103,30.0,84.0,40.0,4.63,IN,1717453563.0
323,mossel bay,-34.1831,22.146,14.96,80.0,100.0,7.04,ZA,1717453578.0
324,sandnessjoen,66.0217,12.6316,10.23,76.0,75.0,6.17,NO,1717453579.0
325,murzuq,25.9155,13.9184,33.16,18.0,84.0,5.19,LY,1717453581.0
326,kiama,-34.6833,150.8667,11.92,78.0,36.0,2.36,AU,1717453582.0
327,piacabucu,-10.4056,-36.4344,24.83,88.0,12.0,3.44,BR,1717453583.0
328,beitbridge,-22.2167,30.0,17.11,13.0,0.0,5.93,ZW,1717453584.0
329,chabahar,25.2919,60.643,29.39,80.0,3.0,3.13,IR,1717453585.0
330,yeroham,30.9872,34.9314,21.54,70.0,0.0,4.19,IL,1717453586.0
331,grajau,-5.8194,-46.1386,27.57,62.0,99.0,2.0,BR,1717453587.0
332,celestun,20.8667,-90.4,31.03,64.0,62.0,6.79,MX,1717453589.0
333,yeppoon,-23.1333,150.7333,12.36,58.0,5.0,1.63,AU,1717453590.0
334,selkirk,50.1436,-96.8845,22.31,51.0,75.0,1.34,CA,1717453591.0
335,praya,14.9215,-23.5087,23.3,78.0,75.0,6.17,CV,1717453592.0
336,dakhla,23.6848,-15.958,19.95,91.0,0.0,7.78,EH,1717453568.0
337,nantucket,41.2835,-70.0995,22.06,82.0,0.0,7.2,US,1717453595.0
338,mata-utu,-13.2816,-176.1745,27.66,75.0,10.0,7.89,WF,1717453596.0
339,ibotirama,-12.1853,-43.2206,28.2,41.0,100.0,2.27,BR,1717453597.0
340,katsuren-haebaru,26.3369,127.8719,23.38,85.0,0.0,2.57,JP,1717453598.0
341,tralee,52.2704,-9.7026,12.54,94.0,100.0,2.22,IE,1717453600.0
342,mont-dore,-22.2833,166.5833,27.99,99.0,0.0,1.1,NC,1717453601.0
343,broome,42.2506,-75.833,25.9,72.0,100.0,2.57,US,1717453602.0
344,pandan,14.0453,124.1694,27.86,82.0,100.0,2.55,PH,1717453603.0
345,puntarenas,9.9763,-84.8384,28.4,81.0,100.0,3.36,CR,1717453344.0
346,surigao,9.7839,125.4889,27.11,81.0,100.0,1.5,PH,1717453605.0
347,greymouth,-42.4667,171.2,6.33,76.0,89.0,2.58,NZ,1717453606.0
348,timbuktu,16.7735,-3.0074,37.39,22.0,100.0,2.25,ML,1717453608.0
349,valsad,20.6333,72.9333,29.59,73.0,100.0,3.91,IN,1717453609.0
350,camacupa,-12.0167,17.4833,14.74,40.0,1.0,1.04,AO,1717453610.0
351,clodomira,-27.5744,-64.1311,14.8,36.0,98.0,2.53,AR,1717453611.0
352,urengoy,65.9667,78.3667,-2.11,91.0,100.0,4.25,RU,1717453612.0
353,cherdyn',60.403,56.4787,9.82,94.0,24.0,3.17,RU,1717453614.0
354,franca,-20.5386,-47.4008,19.91,47.0,100.0,1.47,BR,1717453615.0
355,larose,29.5724,-90.3818,32.23,68.0,40.0,4.63,US,1717453436.0
356,roslavl',53.9528,32.8639,13.57,97.0,13.0,2.94,RU,1717453570.0
357,rancho palos verdes,33.7445,-118.387,24.04,78.0,75.0,3.6,US,1717453618.0
358,kirikhan,36.4994,36.3576,22.46,56.0,0.0,1.03,TR,1717453619.0
359,palopo,-2.9996,120.1921,23.41,92.0,100.0,1.86,ID,1717453621.0
360,chui,-33.6971,-53.4616,9.36,73.0,99.0,2.23,UY,1717453622.0
361,susuman,62.7833,148.1667,12.77,44.0,7.0,2.68,RU,1717453623.0
362,wellington,-41.2866,174.7756,11.81,74.0,100.0,8.75,NZ,1717453606.0
363,weligama,5.9667,80.4167,25.64,91.0,68.0,2.21,LK,1717453625.0
364,nemuro,43.3236,145.575,7.31,93.0,100.0,3.74,JP,1717453626.0
365,nova vicosa,-17.8919,-39.3719,23.33,85.0,19.0,2.89,BR,1717453627.0
366,beaufort west,-32.3567,22.583,7.07,81.0,100.0,6.39,ZA,1717453450.0
367,haimen,23.1935,116.6142,20.94,76.0,100.0,5.83,CN,1717453630.0
368,sekong,-6.3996,106.0252,23.62,97.0,88.0,0.56,ID,1717453631.0
369,chiredzi,-21.05,31.6667,21.32,22.0,39.0,5.37,ZW,1717453632.0
370,kent,51.1667,0.6667,17.95,72.0,99.0,0.89,GB,1717453418.0
371,awjilah,29.1081,21.2869,34.63,13.0,79.0,5.74,LY,1717453635.0
372,bryne,58.7354,5.6477,12.77,89.0,75.0,2.06,NO,1717453636.0
373,onega,63.9061,38.1404,14.28,97.0,99.0,2.19,RU,1717453637.0
374,galliano,29.4422,-90.2992,32.22,66.0,40.0,4.63,US,1717453438.0
375,dereli,40.7378,38.4493,17.09,39.0,0.0,3.79,TR,1717453639.0
376,mullovka,54.2,49.4,18.9,91.0,92.0,1.95,RU,1717453641.0
377,kinkala,-4.3614,14.7644,22.76,79.0,5.0,1.72,CG,1717453642.0
378,gulf shores,30.246,-87.7008,29.03,74.0,40.0,4.47,US,1717453643.0
379,khvansar,33.2205,50.315,15.86,37.0,31.0,0.66,IR,1717453644.0
380,machico,32.7,-16.7667,20.35,82.0,20.0,3.09,PT,1717453645.0
381,trinidad,-14.8333,-64.9,29.99,58.0,75.0,0.0,BO,1717453607.0
382,itaituba,-4.2761,-55.9836,26.72,79.0,98.0,1.19,BR,1717453647.0
383,ust'-ilimsk,58.0006,102.6619,13.02,56.0,100.0,1.79,RU,1717453358.0
384,saint croix,17.7397,-64.7388,28.25,84.0,75.0,3.09,VI,1717453650.0
385,alytus,54.4,24.05,13.13,98.0,6.0,3.08,LT,1717453382.0
386,avsallar,36.616,31.7806,26.88,47.0,29.0,1.53,TR,1717453652.0
387,tilcara,-23.5776,-65.3509,8.31,55.0,41.0,0.77,AR,1717453653.0
388,neiafu,-18.65,-173.9833,25.01,57.0,84.0,5.69,TO,1717453654.0
389,azazga,36.7447,4.3722,15.73,74.0,0.0,3.03,DZ,1717453655.0
390,bardai,11.65,7.2333,25.7,63.0,100.0,1.8,NG,1717453657.0
391,zhongshan,21.3226,110.5829,26.3,91.0,63.0,3.85,CN,1717453658.0
392,remire-montjoly,4.9167,-52.2667,28.02,83.0,20.0,2.06,GF,1717453659.0
393,galveston,29.3669,-94.9669,32.83,75.0,100.0,7.2,US,1717453608.0
394,korla,41.7597,86.1469,21.88,22.0,50.0,7.61,CN,1717453661.0
395,kalispell,48.1958,-114.3129,14.02,60.0,40.0,4.12,US,1717453541.0
396,kukawa,12.9234,13.5606,33.65,32.0,39.0,3.12,NG,1717453663.0
397,nako,31.8814,78.627,10.92,52.0,31.0,2.15,IN,1717453665.0
398,chinde,26.8418,88.0763,17.54,88.0,14.0,2.11,NP,1717453666.0
399,queenstown,-31.8976,26.8753,4.42,72.0,36.0,11.6,ZA,1717453667.0
400,kerman,30.2832,57.0788,23.92,23.0,0.0,3.09,IR,1717453668.0
401,lospalos,-8.5186,127.0025,22.54,86.0,100.0,3.01,TL,1717453670.0
402,mora,11.0461,14.1401,32.91,37.0,51.0,3.35,CM,1717453671.0
403,fort st. john,56.2499,-120.8529,8.94,100.0,100.0,4.63,CA,1717453662.0
404,nagato,34.3833,131.2,19.0,73.0,90.0,6.23,JP,1717453673.0
405,dzuunmod,48.2199,97.3744,9.0,46.0,86.0,1.58,MN,1717453674.0
406,ahau,,,,,,,,
407,geraldton,-28.7667,114.6,16.23,88.0,100.0,2.57,AU,1717453379.0
408,ingeniero guillermo n. juarez,-23.9,-61.85,16.12,61.0,0.0,3.08,AR,1717453678.0
409,baki,-7.6128,110.7839,23.02,92.0,92.0,2.81,ID,1717453679.0
410,ouellah,,,,,,,,
411,dunedin,-45.8742,170.5036,9.45,52.0,19.0,1.22,NZ,1717453681.0
412,molo,-0.2479,35.7374,11.48,92.0,74.0,1.45,KE,1717453682.0
413,nsanje,-16.92,35.262,21.08,68.0,0.0,0.75,MW,1717453683.0
414,hermanus,-34.4187,19.2345,16.0,89.0,100.0,5.9,ZA,1717453685.0
415,bukama,-9.2,25.85,22.54,61.0,70.0,1.03,CD,1717453686.0
416,najran,17.4924,44.1277,27.36,15.0,9.0,1.85,SA,1717453687.0
417,igarra,7.2827,6.0878,23.33,96.0,6.0,2.29,NG,1717453688.0
418,trincomalee,8.5711,81.2335,28.13,74.0,100.0,7.02,LK,1717453689.0
419,puerto baquerizo moreno,-0.9,-89.6,25.55,73.0,75.0,7.72,EC,1717453690.0
420,abong mbang,3.9833,13.1833,20.34,99.0,9.0,0.84,CM,1717453691.0
421,longquan,24.6719,102.1613,18.37,94.0,45.0,1.44,CN,1717453693.0
422,bairnsdale,-37.8333,147.6167,8.36,91.0,52.0,3.01,AU,1717453410.0
423,kampung sungai ara,5.327,100.2735,26.96,91.0,20.0,0.51,MY,1717453695.0
424,kamina,-8.7386,24.9906,19.57,53.0,66.0,1.25,CD,1717453696.0
425,tieli,46.95,128.05,12.95,88.0,100.0,2.31,CN,1717453697.0
426,borger,52.9233,6.7931,15.02,89.0,100.0,2.31,NL,1717453698.0
427,san sebastian de la gomera,28.0916,-17.1133,21.88,77.0,0.0,1.54,ES,1717453700.0
428,humaita,-7.5061,-63.0208,28.39,65.0,100.0,0.89,BR,1717453701.0
429,usinsk,65.9939,57.5281,3.37,86.0,100.0,4.47,RU,1717453450.0
430,harran,36.86,39.0314,27.93,21.0,0.0,1.48,TR,1717453703.0
431,puerto ayacucho,5.6639,-67.6236,24.16,94.0,100.0,2.02,VE,1717453704.0
432,ercis,39.0287,43.3586,15.42,59.0,7.0,3.33,TR,1717453705.0
433,narasingapuram,13.6167,79.3333,28.07,75.0,100.0,1.05,IN,1717453706.0
434,nakamura,32.9833,132.9333,17.54,73.0,0.0,1.14,JP,1717453708.0
435,qarqaraly,49.4058,75.4742,9.39,62.0,71.0,3.58,KZ,1717453709.0
436,slave lake,55.2834,-114.769,12.99,82.0,100.0,4.63,CA,1717453683.0
437,banjarmasin,-3.3244,114.591,25.08,96.0,100.0,1.03,ID,1717453691.0
438,launceston,-41.45,147.1667,8.97,100.0,100.0,3.09,AU,1717453712.0
439,igarka,67.4667,86.5833,0.57,82.0,100.0,1.79,RU,1717453713.0
440,borogontsy,62.6683,131.1683,14.54,55.0,0.0,4.23,RU,1717453715.0
441,pariaman,-0.619,100.12,26.03,86.0,70.0,1.87,ID,1717453644.0
442,gizo,-8.103,156.8419,28.1,78.0,29.0,2.14,SB,1717453718.0
443,tekane,,,,,,,,
444,turpan,42.9333,89.1667,24.92,32.0,0.0,1.08,CN,1717453594.0
445,kourou,5.1552,-52.6478,28.03,86.0,17.0,3.5,GF,1717453497.0
446,faya-largeau,17.9257,19.1043,36.57,11.0,0.0,4.44,TD,1717453722.0
447,kailua-kona,19.6406,-155.9956,30.15,75.0,20.0,5.14,US,1717453723.0
448,corner brook,48.9667,-57.9484,13.09,92.0,98.0,2.99,CA,1717453543.0
449,morehead,37.2711,-87.1764,31.59,54.0,40.0,1.54,US,1717453726.0
450,papao,-17.75,-149.55,28.82,78.0,100.0,2.74,PF,1717453727.0
451,quepos,9.4236,-84.1652,27.45,86.0,100.0,0.38,CR,1717453728.0
452,brisas de zicatela,15.8369,-97.0419,32.29,79.0,75.0,3.09,MX,1717453729.0
453,antofagasta,-23.65,-70.4,16.6,85.0,88.0,2.53,CL,1717453222.0
454,mingyue,43.1069,128.9217,14.31,75.0,85.0,0.88,CN,1717453731.0
455,aginskoye,51.1,114.53,15.59,61.0,85.0,1.27,RU,1717453733.0
456,syanno,54.8106,29.7069,14.17,97.0,77.0,3.32,BY,1717453734.0
457,tazacorte,28.629,-17.9293,20.54,93.0,0.0,4.12,ES,1717453735.0
458,horta,38.5333,-28.6333,17.8,88.0,20.0,2.57,PT,1717453736.0
459,callao,-12.0667,-77.15,22.07,68.0,0.0,6.17,PE,1717453737.0
460,flying fish cove,-10.4217,105.6791,25.82,94.0,75.0,5.14,CX,1717453738.0
461,ouro preto do oeste,-10.7481,-62.2158,25.05,72.0,77.0,1.46,BR,1717453739.0
462,vingt cinq,,,,,,,,
463,fortuna,40.5982,-124.1573,18.85,82.0,100.0,4.63,US,1717453742.0
464,bechar,31.6167,-2.2167,24.18,46.0,40.0,8.23,DZ,1717453743.0
465,trairi,-3.2778,-39.2689,24.85,91.0,68.0,3.42,BR,1717453697.0
466,vera cruz,-12.6333,-41.0333,24.57,55.0,90.0,2.28,BR,1717453745.0
467,juchitan de zaragoza,16.4333,-95.0167,32.49,63.0,88.0,6.84,MX,1717453746.0
468,ninghai,29.2892,121.4247,19.13,69.0,100.0,1.87,CN,1717453748.0
469,ballina,-28.8667,153.5667,12.66,65.0,83.0,3.41,AU,1717453749.0
470,riyadh,24.6877,46.7219,32.08,12.0,0.0,2.91,SA,1717453632.0
471,stephenville,32.2207,-98.2023,32.87,68.0,40.0,3.6,US,1717453751.0
472,mejit,10.2753,170.8646,27.91,81.0,100.0,9.69,MH,1717453752.0
473,gorantla,,,,,,,,
474,pisco,-13.7,-76.2167,18.03,77.0,0.0,7.72,PE,1717453754.0
475,shingu,33.7333,135.9833,17.46,67.0,1.0,1.71,JP,1717453756.0
476,lompoc,34.6391,-120.4579,26.03,76.0,100.0,9.26,US,1717453561.0
477,harper,4.375,-7.7169,25.21,93.0,100.0,3.98,LR,1717453758.0
478,goondiwindi,-28.55,150.3167,9.55,64.0,100.0,0.97,AU,1717453759.0
479,antonio enes,-16.2325,39.9086,24.17,86.0,68.0,3.28,MZ,1717453760.0
480,mersing,2.4312,103.8405,24.95,94.0,20.0,2.57,MY,1717453761.0
481,mucumpiz,8.4167,-71.1333,17.93,88.0,100.0,2.08,VE,1717453762.0
482,le port,-20.9373,55.2919,20.0,67.0,6.0,0.29,RE,1717453764.0
483,grande prairie,55.1667,-118.8027,12.1,94.0,100.0,3.6,CA,1717453503.0
484,breclav,48.759,16.882,17.47,93.0,100.0,3.19,CZ,1717453766.0
485,leava,-14.3,-178.1667,27.75,64.0,86.0,8.28,WF,1717453767.0
486,libertad,8.9442,125.5019,26.68,89.0,100.0,1.63,PH,1717453768.0
487,kirgiz-miyaki,53.6324,54.7979,14.36,95.0,86.0,1.8,RU,1717453769.0
488,bangolo,7.0069,-7.475,23.69,95.0,96.0,0.87,CI,1717453771.0
489,robore,-18.3333,-59.75,29.05,74.0,20.0,0.0,BO,1717453772.0
490,pagar alam,-4.0167,103.2667,20.71,99.0,94.0,0.67,ID,1717453773.0
491,san pedro,14.35,121.0167,29.62,84.0,75.0,2.57,PH,1717453505.0
492,nishinoomote,30.7333,131.0,22.01,64.0,28.0,2.97,JP,1717453775.0
493,brena alta,28.65,-17.7833,18.97,78.0,0.0,4.12,ES,1717453776.0
494,muro del alcoy,38.7812,-0.4361,20.22,74.0,53.0,0.58,ES,1717453777.0
495,kavaratti,10.5669,72.642,28.99,83.0,100.0,3.77,IN,1717453779.0
496,zouerate,22.7187,-12.4521,28.56,21.0,24.0,5.37,MR,1717453780.0
497,male,4.1748,73.5089,28.97,84.0,75.0,4.12,MV,1717453781.0
498,balakirevo,56.5059,38.8432,16.4,97.0,8.0,2.89,RU,1717453782.0
499,upington,-28.4478,21.2561,8.21,49.0,7.0,3.09,ZA,1717453771.0
500,luena,-11.7833,19.9167,17.1,55.0,2.0,2.06,AO,1717453784.0
501,cabo san lucas,22.8909,-109.9124,33.67,33.0,0.0,2.06,MX,1717453497.0
502,lubang,13.8584,120.124,29.34,76.0,100.0,2.22,PH,1717453787.0
503,lhasa,29.65,91.1,9.94,63.0,100.0,0.94,CN,1717453788.0
504,ancud,-41.8697,-73.8203,7.23,93.0,100.0,3.78,CL,1717453789.0
505,swift current,50.2834,-107.8014,17.45,77.0,75.0,3.09,CA,1717453790.0
506,sanming,26.2486,117.6186,18.06,79.0,98.0,1.22,CN,1717453791.0
507,juegang,32.3174,121.1855,19.49,83.0,97.0,4.56,CN,1717453792.0
508,kyabe,9.4515,18.9449,31.43,39.0,70.0,1.82,TD,1717453794.0
509,tabas,33.5959,56.9244,29.12,24.0,4.0,2.06,IR,1717453795.0
510,chifeng,42.2683,118.9636,19.18,40.0,6.0,2.06,CN,1717453796.0
511,boucherville,45.591,-73.4361,30.21,27.0,0.0,2.06,CA,1717453797.0
512,tomatlan,19.9333,-105.25,32.05,37.0,0.0,5.1,MX,1717453798.0
513,alvear,-29.0968,-56.5504,10.74,76.0,0.0,4.36,AR,1717453799.0
514,zemio,5.0314,25.1361,22.29,85.0,88.0,0.87,CF,1717453801.0
515,zheleznodorozhnyy,55.7503,38.0042,17.83,94.0,23.0,2.24,RU,1717453802.0
516,bogo,11.0517,124.0055,29.04,75.0,100.0,1.6,PH,1717453804.0
517,arraias,-12.9288,-46.9437,22.67,45.0,100.0,2.39,BR,1717453805.0
518,san jose del cabo,23.0589,-109.6977,37.65,52.0,0.0,5.14,MX,1717453807.0
519,sodankyla,67.4167,26.6,13.8,83.0,100.0,1.98,FI,1717453809.0
520,lib,8.3122,167.3766,27.99,82.0,99.0,6.1,MH,1717453810.0
521,pitimbu,-7.4706,-34.8086,24.33,86.0,95.0,4.03,BR,1717453811.0
522,magong,23.5654,119.5863,25.13,72.0,99.0,8.65,TW,1717453812.0
523,puerto penasco,31.3167,-113.5333,30.99,71.0,0.0,5.66,MX,1717453813.0
524,devonport,-41.1667,146.35,10.29,90.0,27.0,1.8,AU,1717453815.0
525,termas de rio hondo,-27.4998,-64.8604,14.02,42.0,100.0,2.28,AR,1717453801.0
526,holmsund,63.706,20.3641,13.97,88.0,75.0,1.54,SE,1717453748.0
527,lagos,6.5833,3.75,27.18,87.0,31.0,2.91,NG,1717453329.0
528,manokwari,-0.8667,134.0833,27.67,71.0,96.0,1.4,ID,1717453819.0
529,betio village,1.358,172.9211,30.02,76.0,19.0,2.98,KI,1717453820.0
530,kharp,66.8014,65.8081,-0.16,72.0,94.0,1.77,RU,1717453821.0
531,mili,6.0815,171.735,27.99,80.0,98.0,4.87,MH,1717453823.0
532,mount isa,-20.7333,139.5,8.87,100.0,100.0,0.0,AU,1717453824.0
533,salinas,36.6777,-121.6555,26.66,78.0,0.0,6.17,US,1717453825.0
534,golub-dobrzyn,53.1109,19.0538,16.96,92.0,0.0,3.44,PL,1717453826.0
535,san pedro pochutla,15.7333,-96.4667,31.84,59.0,87.0,3.34,MX,1717453828.0
536,lakhdenpokh'ya,61.5198,30.1992,15.97,96.0,97.0,0.93,RU,1717453829.0
537,copiapo,-27.3667,-70.3333,11.83,53.0,100.0,1.61,CL,1717453751.0
538,shatrovo,56.5167,64.6333,7.97,91.0,90.0,3.21,RU,1717453831.0
539,vizinga,61.0749,50.1031,15.24,97.0,68.0,2.03,RU,1717453832.0
540,shihezi,44.3,86.0333,15.44,73.0,100.0,1.62,CN,1717453833.0
541,camana,-16.6228,-72.7111,17.39,85.0,3.0,3.26,PE,1717453759.0
542,codrington,-38.2667,141.9667,8.26,81.0,100.0,2.25,AU,1717453836.0
543,karaj,35.8355,51.0103,19.29,45.0,0.0,8.23,IR,1717453837.0
544,arraial do cabo,-22.9661,-42.0278,20.98,88.0,0.0,1.03,BR,1717453838.0
545,archangelos,36.2149,28.1149,22.99,45.0,86.0,2.68,GR,1717453839.0
546,palmer,42.1584,-72.3287,29.78,36.0,20.0,0.0,US,1717453840.0
547,anabar,,,,,,,,
548,los llanos de aridane,28.6585,-17.9182,18.86,93.0,0.0,4.12,ES,1717453842.0
549,promyshlennaya,54.9159,85.6385,12.56,89.0,100.0,6.95,RU,1717453844.0
550,kusong,39.9811,125.2447,18.92,62.0,0.0,0.7,KP,1717453845.0
551,lingdong,46.5669,131.1453,12.23,78.0,74.0,2.08,CN,1717453846.0
552,labytnangi,66.6572,66.4183,0.21,82.0,85.0,2.06,RU,1717453802.0
553,norrtalje,59.758,18.705,17.46,76.0,66.0,3.19,SE,1717453848.0
554,az zulfi,26.2995,44.8154,32.52,12.0,0.0,4.58,SA,1717453849.0
555,tamandare,-8.7597,-35.1047,25.32,85.0,20.0,2.79,BR,1717453851.0
556,iwanai,42.9744,140.5089,16.76,61.0,10.0,0.97,JP,1717453852.0
557,gereida,11.2811,25.1414,30.59,12.0,7.0,2.92,SD,1717453853.0
558,new plymouth,-39.0667,174.0833,9.62,96.0,99.0,4.02,NZ,1717453854.0
559,bohain-en-vermandois,49.9873,3.453,13.59,92.0,100.0,1.98,FR,1717453855.0
560,koungheul,13.9833,-14.8,31.42,33.0,26.0,5.84,SN,1717453856.0
561,amble,55.3333,-1.5833,14.22,72.0,10.0,2.57,GB,1717453857.0
562,baruun-urt,46.6806,113.2792,19.67,22.0,62.0,2.32,MN,1717453859.0
563,pyay,18.8167,95.2167,25.14,90.0,79.0,1.82,MM,1717453860.0
564,akureyri,65.6835,-18.0878,1.96,93.0,100.0,7.72,IS,1717453861.0
565,bredy,52.4153,60.3411,15.7,89.0,100.0,3.52,RU,1717453862.0
566,vung tau,10.346,107.0843,28.46,75.0,100.0,5.03,VN,1717453863.0
567,nieuw amsterdam,5.8833,-55.0833,26.09,89.0,20.0,0.0,SR,1717453864.0
568,nizhniy odes,63.6445,54.856,8.66,89.0,100.0,2.76,RU,1717453866.0
569,bantay,17.5847,120.3892,28.64,73.0,100.0,1.11,PH,1717453867.0
570,sundsvall,62.3913,17.3063,11.98,76.0,100.0,6.17,SE,1717453868.0
571,comblain-au-pont,50.4749,5.5771,13.69,84.0,100.0,0.53,BE,1717453869.0
572,raja,8.4596,25.678,26.56,52.0,28.0,2.53,SS,1717453870.0
573,port hedland,-20.3167,118.5667,13.03,71.0,0.0,3.6,AU,1717453871.0
574,linxi,39.7,118.4333,22.28,39.0,2.0,1.84,CN,1717453873.0
575,mont-joli,48.5839,-68.1921,14.72,77.0,75.0,6.69,CA,1717453874.0
576,constitucion,-35.3333,-72.4167,13.78,52.0,100.0,0.76,CL,1717453857.0
577,guerrero negro,27.9769,-114.0611,19.64,62.0,3.0,8.96,MX,1717453876.0
578,kirakira,-10.4544,161.9205,29.44,72.0,7.0,1.66,SB,1717453877.0
579,kwang binh,17.4833,106.6,27.89,75.0,98.0,3.9,VN,1717453878.0
580,zholymbet,51.7433,71.7122,14.99,66.0,57.0,6.98,KZ,1717453880.0
581,cole harbour,44.6724,-63.4751,16.66,82.0,98.0,4.63,CA,1717453881.0
582,krasnokholmskiy,55.9873,55.0466,17.35,93.0,38.0,2.99,RU,1717453882.0
583,kaga bandoro,6.9896,19.1874,25.01,51.0,100.0,2.47,CF,1717453883.0
584,adigrat,14.277,39.462,18.19,36.0,37.0,0.42,ET,1717453884.0
585,bella vista,36.4295,-94.2316,22.09,91.0,0.0,6.17,US,1717453885.0
586,lowell,42.6334,-71.3162,27.47,51.0,0.0,5.14,US,1717453754.0
587,mahalapye,-23.1041,26.8142,8.19,32.0,0.0,2.81,BW,1717453888.0
588,malpils,57.0111,24.9631,13.27,95.0,39.0,1.66,LV,1717453889.0
589,rabaul,-4.1967,152.1721,28.32,73.0,67.0,0.8,PG,1717453890.0
590,pleiku,13.9833,108.0,22.28,85.0,100.0,1.0,VN,1717453891.0
